time_millisecond_,latitude,longitude,height_above_takeoff_feet_,height_above_ground_at_drone_location_feet_,ground_elevation_at_drone_location_feet_,altitude_above_seaLevel_feet_,height_sonar_feet_,speed_mph_,distance_feet_,mileage_feet_,satellites,gpslevel,max_altitude_feet_,max_ascent_feet_,max_speed_mph_,max_distance_feet_,xSpeed_mph_,ySpeed_mph_,zSpeed_mph_,compass_heading_degrees_,pitch_degrees_,roll_degrees_,isPhoto,isVideo,rc_elevator,rc_aileron,rc_throttle,rc_rudder,rc_elevator_percent_,rc_aileron_percent_,rc_throttle_percent_,rc_rudder_percent_,gimbal_heading_degrees_,gimbal_pitch_degrees_,altitude_feet_,ascent_feet_,flycStateRaw,flycState
0,51.5194978685948,5.86063219732358,0,0,95.7433101504,95.7433101504,0,0,0,0,17,5,95.7433101504,0,0,0,0,0,0,235.5,-1,0.5,0,0,364,364,364,1684,-100,-100,-100,100,240,0,95.7433101504,0,6,P-GPS
100,51.5194978671517,5.8606321974047,0,0,95.7433101504,95.7433101504,0,0,0.0005268700956,0.0005268700956,17,5,95.7433101504,0,0,0.0005268700956,0,0,0,235.5,-1,0.5,0,0,364,364,364,1684,-100,-100,-100,100,240,0,95.7433101504,0,6,P-GPS
200,51.519497866558,5.86063219750042,0,0,95.7433101504,95.7433101504,0,0,0.00074423886896,0.00074456367212,17,5,95.7433101504,0,0,0.00074423886896,0,0,0,235.5,-1,0.5,0,0,364,364,364,1684,-100,-100,-100,100,240,0,95.7433101504,0,6,P-GPS
300,51.5194978796854,5.8606321693586,0,0,95.7433101504,95.7433101504,0,0,0.0075286419732,0.0087294622216,17,5,95.7433101504,0,0,0.0075286419732,0,0,0,235.5,-1,0.5,0,0,364,364,364,1684,-100,-100,-100,100,240,0,95.7433101504,0,6,P-GPS
400,51.5194978801435,5.86063217031764,0,0,95.7433101504,95.7433101504,0,0,0.0074393375084,0.0090039044876,17,5,95.7433101504,0,0,0.0075286419732,0,0,0,235.5,-1,0.5,0,0,364,364,364,1684,-100,-100,-100,100,240,0,95.7433101504,0,6,P-GPS
500,51.5194978805347,5.86063217134462,0,0,95.7433101504,95.7433101504,0,0,0.0073322836992,0.0092772968848,17,5,95.7433101504,0,0,0.0075286419732,0,0,0,235.5,-1,0.5,0,0,364,364,364,1684,-100,-100,-100,100,240,0,95.7433101504,0,6,P-GPS
600,51.5194978775574,5.86063219486905,0,0,95.7433101504,95.7433101504,0,0,0.0033171260904,0.0147273298676,17,5,95.7433101504,0,0,0.0075286419732,0,0,0,235.5,-1,0.5,0,0,364,364,364,1684,-100,-100,-100,100,240,0,95.7433101504,0,6,P-GPS
700,51.5194978779146,5.86063219467525,0,0,95.7433101504,95.7433101504,0,0,0.0034530512916,0.0148648626804,17,5,95.7433101504,0,0,0.0075286419732,0,0,0,235.5,-1,0.5,0,0,364,364,364,1684,-100,-100,-100,100,240,0,95.7433101504,0,6,P-GPS
800,51.519497878263,5.86063219393328,0,0,95.7433101504,95.7433101504,0,0,0.003610400378,0.0150758863092,17,5,95.7433101504,0,0,0.0075286419732,0,0,0,235.5,-1,0.5,0,0,364,364,364,1684,-100,-100,-100,100,240,0,95.7433101504,0,6,P-GPS
900,51.5194978603714,5.86063217983552,0,0,95.7433101504,95.7433101504,0,0,0.0049764109204,0.0223459980904,17,5,95.7433101504,0,0,0.0075286419732,0,0,0,235.5,-1,0.5,0,0,364,364,364,1684,-100,-100,-100,100,240,0,95.7433101504,0,6,P-GPS
1000,51.5194978607546,5.8606321783226,0,0,95.7433101504,95.7433101504,0,0,0.0051759844176,0.0227168314356,17,5,95.7433101504,0,0,0.0075286419732,0,0,0,235.5,-1,0.5,0,0,364,364,364,1684,-100,-100,-100,100,240,0,95.7433101504,0,6,P-GPS
1100,51.5194978611812,5.86063217707703,0,0,95.7433101504,95.7433101504,0,0,0.005333333504,0.0230396004748,17,5,95.7433101504,0,0,0.0075286419732,0,0,0,235.5,-1,0.5,0,0,364,364,364,1684,-100,-100,-100,100,240,0,95.7433101504,0,6,P-GPS
1200,51.5194978753701,5.86063217078808,0,0,95.7433101504,95.7433101504,0,0,0.0065117128068,0.0284097121952,17,5,95.7433101504,0,0,0.0075286419732,0,0,0,235.5,-1,0.5,0,0,364,364,364,1684,-100,-100,-100,100,240,0,95.7433101504,0,6,P-GPS
1300,51.5194978756682,5.86063217266883,0,0,95.7433101504,95.7433101504,0,0,0.0061635828744,0.0288503290072,17,5,95.7433101504,0,0,0.0075286419732,0,0,0,235.4,-1,0.5,0,0,1084,1244,1024,1024,9,33,0,0,240,0,95.7433101504,0,6,P-GPS
1400,51.5194978763429,5.86063217634479,0,0,95.7433101504,95.7433101504,0,0,0.0055385172376,0.0297204077752,17,5,95.7433101504,0,0,0.0075286419732,0,0,0,235.4,-1,0.5,0,0,1024,1024,1024,1024,0,0,0,0,239.6,0,95.7433101504,0,6,P-GPS
1500,51.5194978767644,5.86063217946427,0,0,95.7433101504,95.7433101504,0,0,0.0050322508172,0.0304451125228,17,5,95.7433101504,0,0,0.0075286419732,0,0,0,235.4,-1,0.5,0,0,1024,1024,1024,1024,0,0,0,0,237.8,0,95.7433101504,0,6,P-GPS
1600,51.5194977783145,5.86063219702791,0,0,95.7433101504,95.7433101504,0,0,0.032938649348,0.066585303968,17,5,95.7433101504,0,0,0.032938649348,0,0,0,235.4,-1,0.5,0,0,1024,1024,1024,1024,0,0,0,0,237,0,95.7433101504,0,6,P-GPS
1700,51.5194977773428,5.86063219766647,0,0,95.7433101504,95.7433101504,0,0,0.033293308152,0.066968177996,17,5,95.7433101504,0,0,0.033293308152,0,0,0,235.4,-1,0.5,0,0,1024,1024,1024,1024,0,0,0,0,236.6,0,95.7433101504,0,6,P-GPS
1800,51.5194977761726,5.86063219918133,0,0,95.7433101504,95.7433101504,0,0,0.033722770108,0.06751640636,17,5,95.7433101504,0,0,0.033722770108,0,0,0,235.4,-1,0.5,0,0,1024,1024,1024,1024,0,0,0,0,236.4,0,95.7433101504,0,6,P-GPS
1900,51.5194977653452,5.86063218234405,0,0,95.7433101504,95.7433101504,0,0,0.037823820108,0.07301345378,17,5,95.7433101504,0,0,0.037823820108,0,0,0,235.5,-1,0.5,0,0,1024,1024,1024,1024,0,0,0,0,236.3,0,95.7433101504,0,6,P-GPS
2000,51.5194977666257,5.86063217782819,0,0,95.7433101504,95.7433101504,0,0,0.03746555238,0.074140094236,17,5,95.7433101504,0,0,0.037823820108,0,0,0,235.5,-1,0.5,0,0,1024,1024,1024,1024,0,0,0,0,236.2,0,95.7433101504,0,10,Assisted_Takeoff
2100,51.5194977672381,5.86063217264037,0,0,95.7433101504,95.7433101504,0,0,0.037402232168,0.075338913172,17,5,95.7433101504,0,0,0.037823820108,0,0,0,235.5,-1,0.5,0,0,1024,1024,1024,1024,0,0,0,0,236.1,0,95.7433101504,0,10,Assisted_Takeoff
2200,51.5194977743264,5.86063227822217,0,0,95.7433101504,95.7433101504,0,0,0.038990486812,0.099447837828,17,5,95.7433101504,0,0,0.038990486812,0,0,0,235.5,-1,0.5,0,0,1024,1024,1024,1024,0,0,0,0,236,0,95.7433101504,0,10,Assisted_Takeoff
2300,51.5194977736766,5.86063227571801,0,0,95.7433101504,95.7433101504,0,0,0.038936681036,0.10006397958,17,5,95.7433101504,0,0,0.038990486812,0,0,0,235.5,-1,0.5,0,0,1024,1024,1024,1024,0,0,0,0,236,0,95.7433101504,0,10,Assisted_Takeoff
2400,51.519497774431,5.86063217120353,0,0,95.7433101504,95.7433101504,0,0,0.034863518176,0.123792982964,17,5,95.7433101504,0,0,0.038990486812,0,0,0,235.5,-1,0.5,0,0,1024,1024,1024,1024,0,0,0,0,236,0,95.7433101504,0,10,Assisted_Takeoff
2500,51.5194977780604,5.86063217166353,0,0,95.7433101504,95.7433101504,0,0,0.033541339656,0.12512139508,17,5,95.7433101504,0,0,0.038990486812,0,0,0,235.5,-1,0.5,0,0,1024,1024,1024,1024,0,0,0,0,235.9,0,95.7433101504,0,10,Assisted_Takeoff
2600,51.5194977782784,5.86063216762914,0,0,95.7433101504,95.7433101504,0,0,0.033634515512,0.126040686448,17,5,95.7433101504,0,0,0.038990486812,0,0,0,235.5,-1,0.5,0,0,1024,1024,1024,1024,0,0,0,0,235.9,0,95.7433101504,0,10,Assisted_Takeoff
2700,51.519497777409,5.86063216459161,0,0,95.7433101504,95.7433101504,0,0,0.034088911852,0.126799872824,17,5,95.7433101504,0,0,0.038990486812,0,0,0,235.5,-1,0.5,0,0,1024,1024,1024,1024,0,0,0,0,235.9,0,95.7433101504,0,10,Assisted_Takeoff
2800,51.5194977663198,5.8606321732715,0,0,95.7433101504,95.7433101504,0,0,0.037712271548,0.131299872968,17,5,95.7433101504,0,0,0.038990486812,0,0,0,235.5,-1,0.5,0,0,1024,1024,1024,1024,0,0,0,0,235.9,0,95.7433101504,0,10,Assisted_Takeoff
3000,51.5194977647384,5.86063216839783,0,0,95.7433101504,95.7433101504,0,0,0.038456694144,0.132547904504,17,5,95.7433101504,0,0,0.038990486812,0,0,0,235.5,-1,0.5,0,0,1024,1024,1024,1024,0,0,0,0,235.8,0,95.7433101504,0,10,Assisted_Takeoff
3100,51.5194977682727,5.86063217823184,0,0,95.7433101504,95.7433101504,0,0,0.036858268896,0.135125988576,17,5,95.7433101504,0,0,0.038990486812,0,0,0,235.5,-1,0.4,0,0,1024,1024,1024,1024,0,0,0,0,235.8,0,95.7433101504,0,10,Assisted_Takeoff
3200,51.5194977657266,5.86063217700432,0,0,95.7433101504,95.7433101504,0,0,0.037813977588,0.13609580488,17,5,95.7433101504,0,0,0.038990486812,0,0,0,235.5,-1,0.4,0,0,1024,1024,1024,1024,0,0,0,0,235.8,0,95.7433101504,0,10,Assisted_Takeoff
3300,51.5194977630436,5.86063217674529,0,0,95.7433101504,95.7433101504,0,0,0.03879265216,0.137076447956,17,5,95.7433101504,0,0,0.038990486812,0,0,0,235.5,-1,0.4,0,0,1024,1024,1024,1024,0,0,0,0,235.8,0,95.7433101504,0,10,Assisted_Takeoff
3400,51.5194977646549,5.86063218697035,0,0,95.7433101504,95.7433101504,0,0,0.037995079956,0.139471133072,17,5,95.7433101504,0,0,0.038990486812,0,0,0,235.4,-1,0.4,0,0,1024,1024,1024,1024,0,0,0,0,235.8,0,95.7433101504,0,10,Assisted_Takeoff
3500,51.5194977624043,5.86063218540208,0,0,95.7433101504,95.7433101504,0,0,0.038837927752,0.140366146224,17,5,95.7433101504,0,0,0.038990486812,0,0,0,235.4,-1,0.4,0,0,1024,1024,1024,1024,0,0,0,0,235.8,0,95.7433101504,0,10,Assisted_Takeoff
3600,51.5194977602605,5.86063228382174,0,0,95.7433101504,95.7433101504,0,0,0.044135172016,0.162723758488,17,5,95.7433101504,0,0,0.044135172016,0,0,0,235.6,-1,0.4,0,0,1024,1024,1024,1024,0,0,0,0,235.8,0,95.7433101504,0,10,Assisted_Takeoff
3700,51.5194977659441,5.86063228604681,0,0,95.7433101504,95.7433101504,0,0,0.042524935744,0.164857944908,17,5,95.7433101504,0,0,0.044135172016,0,0,0,235.4,-1,0.4,0,0,1024,1024,1024,1024,0,0,0,0,235.8,0,95.7433101504,0,10,Assisted_Takeoff
3800,51.5194977641823,5.86063218574763,0,0,95.7433101504,95.7433101504,0,0,0.038185368676,0.18763780128,17,5,95.7433101504,0,0,0.044135172016,0,0,0,235.3,-1,0.4,0,0,1024,1024,1024,1024,0,0,0,0,235.8,0,95.7433101504,0,10,Assisted_Takeoff
3900,51.5194977619791,5.86063218487557,0,0,95.7433101504,95.7433101504,0,0,0.039001313584,0.188465557212,17,5,95.7433101504,0,0,0.044135172016,0,0,0,235.6,-1,0.4,0,0,1024,1024,1024,1024,0,0,0,0,235.8,0,95.7433101504,0,10,Assisted_Takeoff
4000,51.5194977553102,5.8606322751444,0,0,95.7433101504,95.7433101504,0,0,0.044949476504,0.209103025064,17,5,95.7433101504,0,0,0.044949476504,0,0,0,235.5,-1,0.4,0,0,1024,1024,1024,1024,0,0,0,0,235.8,0,95.7433101504,0,10,Assisted_Takeoff
4100,51.5194977529453,5.86063227425161,0,0,95.7433101504,95.7433101504,0,0,0.045666340044,0.209989179948,17,5,95.7433101504,0,0,0.045666340044,0,0,0,235.4,-1,0.4,0,0,1024,1024,1024,1024,0,0,0,0,235.8,0,95.7433101504,0,10,Assisted_Takeoff
4200,51.5194977514805,5.86063217219057,0,0,95.7433101504,95.7433101504,0,0,0.043108269096,0.23316601796,17,5,95.7433101504,0,0,0.045666340044,0,0,0,235.6,-1,0.4,0,0,1024,1024,1024,1024,0,0,0,0,235.8,0,95.7433101504,0,10,Assisted_Takeoff
4300,51.5194977726829,5.8606321648651,0,0,95.7433101504,95.7433101504,0,0,0.035760827916,0.241078419788,17,5,95.7433101504,0,0,0.045666340044,0,0,0,235.5,-1,0.4,0,0,1024,1024,1024,1024,0,0,0,0,235.8,0,95.7433101504,0,10,Assisted_Takeoff
4400,51.519497769632,5.86063216425284,0,0,95.7433101504,95.7433101504,0,0,0.036878938188,0.242200138984,17,5,95.7433101504,0,0,0.045666340044,0,0,0,235.4,-1,0.4,0,0,1024,1024,1024,1024,0,0,0,0,235.8,0,95.7433101504,0,10,Assisted_Takeoff
4500,51.5194977675538,5.86063216382496,0,0,95.7433101504,95.7433101504,0,0,0.03764107732,0.242964574704,17,5,95.7433101504,0,0,0.045666340044,0,0,0,235.6,-1,0.4,0,0,1024,1024,1024,1024,0,0,0,0,235.8,0,95.7433101504,0,10,Assisted_Takeoff
4600,51.5194977655484,5.86063216341857,0,0,95.7433101504,95.7433101504,0,0,0.038376313564,0.243702107536,17,5,95.7433101504,0,0,0.045666340044,0,0,0,235.6,-1,0.4,0,0,1024,1024,1024,1024,0,0,0,0,235.8,0,95.7433101504,0,10,Assisted_Takeoff
4700,51.5194977504419,5.86063218115915,0,0,95.7433101504,95.7433101504,0,0,0.043264108996,0.250528551324,17,5,95.7433101504,0,0,0.045666340044,0,0,0,235.5,-1,0.5,0,0,1024,1024,1024,1024,0,0,0,0,235.8,0,95.7433101504,0,10,Assisted_Takeoff
4800,51.5194976493479,5.86063228091291,0,0,95.7433101504,95.7433101504,0,0,0.082212272972,0.293810376856,17,5,95.7433101504,0,0,0.082212272972,0,0,0,235.6,-1,0.4,0,0,1024,1024,1024,1024,0,0,0,0,235.8,0,95.7433101504,0,10,Assisted_Takeoff
4900,51.5194976488911,5.86063228172015,0,0,95.7433101504,95.7433101504,0,0,0.082416997388,0.294058080276,17,5,95.7433101504,0,0,0.082416997388,0,0,0,235.7,-1,0.4,0,0,1024,1024,1024,1024,0,0,0,0,235.8,0,95.7433101504,0,10,Assisted_Takeoff
5000,51.5194976643783,5.8606322903322,0,0,95.7433101504,95.7433101504,0,0,0.07744258778,0.300037083092,17,5,95.7433101504,0,0,0.082416997388,0,0,0,235.5,-1,0.4,0,0,1024,1024,1024,1024,0,0,0,0,235.8,0,95.7433101504,0,10,Assisted_Takeoff
5100,51.5194976632157,5.8606322920897,0,0,95.7433101504,95.7433101504,0,0,0.077959976248,0.300619432192,17,5,95.7433101504,0,0,0.082416997388,0,0,0,235.6,-1,0.4,0,0,1024,1024,1024,1024,0,0,0,0,235.8,0,95.7433101504,0,10,Assisted_Takeoff
5200,51.5194976615866,5.86063229253158,0,0,95.7433101504,95.7433101504,0,0,0.078559057632,0.301222450584,17,5,95.7433101504,0,0,0.082416997388,0,0,0,235.7,-1,0.4,0,0,1024,1024,1024,1024,0,0,0,0,235.8,0,95.7433101504,0,10,Assisted_Takeoff
5300,51.5194976727596,5.86063229867652,0,0,95.7433101504,95.7433101504,0,0,0.07506397878,0.305530849672,17,5,95.7433101504,0,0,0.082416997388,0,0,0,235.5,-1,0.4,0,0,1024,1024,1024,1024,0,0,0,0,235.8,0,95.7433101504,0,10,Assisted_Takeoff
5400,51.5194976713429,5.86063229882193,0,0,95.7433101504,95.7433101504,0,0,0.075566275384,0.306048894308,17,5,95.7433101504,0,0,0.082416997388,0,0,0,235.6,-1,0.4,0,0,1024,1024,1024,1024,0,0,0,0,235.8,0,95.7433101504,0,10,Assisted_Takeoff
5500,51.519497670129,5.86063229865524,0,0,95.7433101504,95.7433101504,0,0,0.075976708468,0.306493448128,17,5,95.7433101504,0,0,0.082416997388,0,0,0,235.7,-1,0.4,0,0,1024,1024,1024,1024,0,0,0,0,235.8,0,95.7433101504,0,10,Assisted_Takeoff
5600,51.5194976759572,5.86063229872366,0,0,95.7433101504,95.7433101504,0,0,0.073957679532,0.308619760532,17,5,95.7433101504,0,0,0.082416997388,0,0,0,235.5,-1,0.4,0,0,1024,1024,1024,1024,0,0,0,0,235.8,0,95.7433101504,0,10,Assisted_Takeoff
5700,51.5194976750061,5.86063229967295,0,0,95.7433101504,95.7433101504,0,0,0.074354661172,0.309028225112,17,5,95.7433101504,0,0,0.082416997388,0,0,0,235.5,-1,0.4,0,0,1024,1024,1024,1024,0,0,0,0,235.8,0,95.7433101504,0,10,Assisted_Takeoff
5800,51.5194976746174,5.86063230067307,0,0,95.7433101504,95.7433101504,0,0,0.07456036984,0.309295941656,17,5,95.7433101504,0,0,0.082416997388,0,0,0,235.7,-1,0.4,0,0,1024,1024,1024,1024,0,0,0,0,235.8,0,95.7433101504,0,10,Assisted_Takeoff
5900,51.5194976744415,5.86063229845043,0,0,95.7433101504,95.7433101504,0,0,0.074464241228,0.30980479994,17,5,95.7433101504,0,0,0.082416997388,0,0,0,235.5,-1,0.4,0,0,1024,1024,1024,1024,0,0,0,0,235.8,0,95.7433101504,0,10,Assisted_Takeoff
6000,51.5194976728104,5.86063229870135,0,0,95.7433101504,95.7433101504,0,0,0.075048230748,0.310402568988,17,5,95.7433101504,0,0,0.082416997388,0,0,0,235.4,-1,0.4,0,0,1024,1024,1024,1024,0,0,0,0,235.8,0,95.7433101504,0,10,Assisted_Takeoff
6200,51.5194976650145,5.86063229968835,0,0,95.7433101504,95.7433101504,0,0,0.077826774144,0.313255587452,17,5,95.7433101504,0,0,0.082416997388,0,0,0,235.5,-1,0.4,0,0,1024,1024,1024,1024,0,0,0,0,235.8,0,95.7433101504,0,10,Assisted_Takeoff
6300,51.5194976615796,5.86063230356242,0,0,95.7433101504,95.7433101504,0,0,0.079287076028,0.31478675548,17,5,95.7433101504,0,0,0.082416997388,0,0,0,235.4,-1,0.4,0,0,1024,1024,1024,1024,0,0,0,0,235.8,0,95.7433101504,0,10,Assisted_Takeoff
6400,51.5194977585804,5.86063230558524,0,0,95.7433101504,95.7433101504,0,0,0.047065946388,0.3501804574,17,5,95.7433101504,0,0,0.082416997388,0,0,0,235.6,-1,0.4,0,0,1024,1024,1024,1024,0,0,0,0,235.8,0,95.7433101504,0,10,Assisted_Takeoff
6500,51.5194977611093,5.86063229959222,0,0,95.7433101504,95.7433101504,0,0,0.045573820356,0.35182415824,17,5,95.7433101504,0,0,0.082416997388,0,0,0,235.5,-1,0.4,0,0,1024,1024,1024,1024,0,0,0,0,235.7,0,95.7433101504,0,10,Assisted_Takeoff
6600,51.5194976586617,5.86063230026969,0,0,95.7433101504,95.7433101504,0,0,0.08008038314,0.38920276836,17,5,95.7433101504,0,0,0.082416997388,0,0,0,235.4,-1,0.4,0,0,1024,1024,1024,1024,0,0,0,0,235.8,0,95.7433101504,0,10,Assisted_Takeoff
6700,51.5194976570679,5.86063229968446,0,0,95.7433101504,95.7433101504,0,0,0.080598427776,0.38979988124,17,5,95.7433101504,0,0,0.082416997388,0,0,0,235.6,-1,0.4,0,0,1024,1024,1024,1024,0,0,0,0,235.7,0,95.7433101504,0,10,Assisted_Takeoff
6800,51.5194977542039,5.86063229245313,0,0,95.7433101504,95.7433101504,0,0,0.046992455572,0.42527560416,17,5,95.7433101504,0,0,0.082416997388,0,0,0,235.6,-1,0.4,0,0,1024,1024,1024,1024,0,0,0,0,235.7,0,95.7433101504,0,10,Assisted_Takeoff
6900,51.5194977519512,5.86063229241595,0,0,95.7433101504,95.7433101504,0,0,0.0477198178,0.426099095,17,5,95.7433101504,0,0,0.082416997388,0,0,0,235.4,-1,0.4,0,0,1024,1024,1024,1024,0,0,0,0,235.7,0,95.7433101504,0,10,Assisted_Takeoff
7000,51.5194977496306,5.86063239283421,0,0,95.7433101504,95.7433101504,0,0,0.062081038732,0.44891077552,17,5,95.7433101504,0,0,0.082416997388,0,0,0,235.6,-1,0.4,0,0,1024,1024,1024,1024,0,0,0,0,235.7,0,95.7433101504,0,10,Assisted_Takeoff
7100,51.5194977544878,5.86063239021639,0,0,95.7433101504,95.7433101504,0,0,0.060422902196,0.45078085432,17,5,95.7433101504,0,0,0.082416997388,0,0,0,235.6,-1,0.4,0,0,1024,1024,1024,1024,0,0,0,0,235.7,0,95.7433101504,0,10,Assisted_Takeoff
7200,51.5194977524123,5.8606323911685,0,0,95.7433101504,95.7433101504,0,0,0.061102692244,0.45156825592,17,5,95.7433101504,0,0,0.082416997388,0,0,0,235.4,-1,0.5,0,0,1024,1024,1024,1024,0,0,0,0,235.8,0,95.7433101504,0,10,Assisted_Takeoff
7300,51.5194977518605,5.86063239052927,0,0,95.7433101504,95.7433101504,0,0,0.0611384534,0.45181759976,17,5,95.7433101504,0,0,0.082416997388,0,0,0,235.6,-1,0.4,0,0,1024,1024,1024,1024,0,0,0,0,235.7,0,95.7433101504,0,10,Assisted_Takeoff
7400,51.5194977597741,5.86063239028655,0,0,95.7433101504,95.7433101504,0,0,0.05912237722,0.45470473896,17,5,95.7433101504,0,0,0.082416997388,0,0,0,235.6,-1,0.4,0,0,1024,1024,1024,1024,0,0,0,0,235.7,0,95.7433101504,0,10,Assisted_Takeoff
7500,51.5194977573206,5.86063239149492,0,0,95.7433101504,95.7433101504,0,0,0.059928807692,0.45563977836,17,5,95.7433101504,0,0,0.082416997388,0,0,0,235.4,-1,0.5,0,0,1024,1024,1024,1024,0,0,0,0,235.7,0,95.7433101504,0,10,Assisted_Takeoff
7600,51.5194977553437,5.86063239190486,0,0,95.7433101504,95.7433101504,0,0,0.060487534744,0.45636812484,17,5,95.7433101504,0,0,0.082416997388,0,0,0,235.6,-1,0.4,0,0,1024,1024,1024,1024,0,0,0,0,235.7,0,95.7433101504,0,10,Assisted_Takeoff
7700,51.5194977535916,5.86063239257622,0,0,95.7433101504,95.7433101504,0,0,0.06103674736,0.45702429284,17,5,95.7433101504,0,0,0.082416997388,0,0,0,235.7,-1,0.4,0,0,1024,1024,1024,1024,0,0,0,0,235.7,0,95.7433101504,0,10,Assisted_Takeoff
7800,51.5194977654319,5.86063227966518,0,0,95.7433101504,95.7433101504,0,0,0.042025591896,0.483021669,17,5,95.7433101504,0,0,0.082416997388,0,0,0,235.5,-1,0.5,0,0,1024,1024,1024,1024,0,0,0,0,235.7,0,95.7433101504,0,10,Assisted_Takeoff
7900,51.5194977635239,5.86063227956386,0,0,95.7433101504,95.7433101504,0,0,0.042640093228,0.48371720708,17,5,95.7433101504,0,0,0.082416997388,0,0,0,235.6,-1,0.4,0,0,1024,1024,1024,1024,0,0,0,0,235.7,0,95.7433101504,0,10,Assisted_Takeoff
8000,51.5194976614387,5.86063227844866,0,0,95.7433101504,95.7433101504,0,0,0.077792325324,0.5209645836,17,5,95.7433101504,0,0,0.082416997388,0,0,0,235.7,-1,0.4,0,0,1024,1024,1024,1024,0,0,0,0,235.7,0,95.7433101504,0,10,Assisted_Takeoff
8100,51.5194976571369,5.86063227318436,0,0,95.7433101504,95.7433101504,0,0,0.079049215128,0.52293636844,17,5,95.7433101504,0,0,0.082416997388,0,0,0,235.5,-1,0.5,0,0,1024,1024,1024,1024,0,0,0,0,235.7,0,95.7433101504,0,10,Assisted_Takeoff
8300,51.5194976550661,5.8606322713057,0,0,95.7433101504,95.7433101504,0,0,0.079695868692,0.52380579104,17,5,95.7433101504,0,0,0.082416997388,0,0,0,235.7,-1,0.4,0,0,1024,1024,1024,1024,0,0,0,0,235.7,0,95.7433101504,0,10,Assisted_Takeoff
8400,51.5194976686696,5.86063218250516,0,0,95.7433101504,95.7433101504,0,0,0.07302001546,0.54456694656,17,5,95.7433101504,0,0,0.082416997388,0,0,0,235.5,-1,0.5,0,0,1024,1024,1024,1024,0,0,0,0,235.7,0,95.7433101504,0,10,Assisted_Takeoff
8600,51.5194976648819,5.86063217711815,0,0,95.7433101504,95.7433101504,0,0,0.074465881648,0.54641077864,17,5,95.7433101504,0,0,0.082416997388,0,0,0,235.7,-1,0.4,0,0,1024,1024,1024,1024,0,0,0,0,235.7,0,95.7433101504,0,10,Assisted_Takeoff
8700,51.5194976686672,5.86063216543971,0,0,95.7433101504,95.7433101504,0,0,0.073301839616,0.54939962388,17,5,95.7433101504,0,0,0.082416997388,0,0,0,235.5,-1,0.4,0,0,1024,1024,1024,1024,0,0,0,0,235.7,0,95.7433101504,0,10,Assisted_Takeoff
8800,51.5194976645693,5.86063216318144,0,0,95.7433101504,95.7433101504,0,0,0.074841209744,0.55098098876,17,5,95.7433101504,0,0,0.082416997388,0,0,0,235.6,-1,0.4,0,0,1024,1024,1024,1024,0,0,0,0,235.7,0,95.7433101504,0,10,Assisted_Takeoff
8900,51.5194976600404,5.86063216158569,0,0,95.7433101504,95.7433101504,0,0,0.07652231216,0.5526739022,17,5,95.7433101504,0,0,0.082416997388,0,0,0,235.8,-1,0.4,0,0,1024,1024,1024,1024,0,0,0,0,235.7,0,95.7433101504,0,10,Assisted_Takeoff
9000,51.5194976583176,5.86063217719831,0,0,95.7433101504,95.7433101504,0,0,0.07685531742,0.55627298368,17,5,95.7433101504,0,0,0.082416997388,0,0,0,235.5,-1,0.4,0,0,1024,1024,1024,1024,0,0,0,0,235.7,0,95.7433101504,0,10,Assisted_Takeoff
9100,51.5194976536207,5.86063217695827,0,0,95.7433101504,95.7433101504,0,0,0.078569228236,0.557988863,17,5,95.7433101504,0,0,0.082416997388,0,0,0,235.6,-1,0.4,0,0,1024,1024,1024,1024,0,0,0,0,235.7,0,95.7433101504,0,10,Assisted_Takeoff
9200,51.5194976513256,5.8606321737686,0,0,95.7433101504,95.7433101504,0,0,0.079450789944,0.55909450608,17,5,95.7433101504,0,0,0.082416997388,0,0,0,235.7,-1,0.4,0,0,1024,1024,1024,1024,0,0,0,0,235.7,0,95.7433101504,0,10,Assisted_Takeoff
9300,51.519497665739,5.86063217991681,0,0,95.7433101504,95.7433101504,0,0,0.074117128356,0.5645341388,17,5,95.7433101504,0,0,0.082416997388,0,0,0,235.5,-1,0.4,0,0,1024,1024,1024,1024,0,0,0,0,235.7,0,95.7433101504,0,10,Assisted_Takeoff
9400,51.5194976640712,5.86063217529812,0,0,95.7433101504,95.7433101504,0,0,0.074787732052,0.5657480496,17,5,95.7433101504,0,0,0.082416997388,0,0,0,235.5,-1,0.5,0,0,1024,1024,1024,1024,0,0,0,0,235.7,0,95.7433101504,0,10,Assisted_Takeoff
9500,51.5194976621758,5.86063217162213,0,0,95.7433101504,95.7433101504,0,0,0.075537403992,0.5668307268,17,5,95.7433101504,0,0,0.082416997388,0,0,0,235.7,-1,0.4,0,0,1024,1024,1024,1024,0,0,0,0,235.7,0,95.7433101504,0,10,Assisted_Takeoff
9600,51.5194976602318,5.86063217783685,0,0,95.7433101504,95.7433101504,0,0,0.076149608736,0.56841209168,17,5,95.7433101504,0,0,0.082416997388,0,0,0,235.5,-1,0.4,0,0,1024,1024,1024,1024,0,0,0,0,235.7,0,95.7433101504,0,10,Assisted_Takeoff
9700,51.5194976577129,5.86063217603831,0,0,95.7433101504,95.7433101504,0,0,0.077091865984,0.56941602872,17,5,95.7433101504,0,0,0.082416997388,0,0,0,235.4,-1,0.5,0,0,1024,1024,1024,1024,0,0,0,0,235.7,0,95.7433101504,0,10,Assisted_Takeoff
9800,51.5194976552573,5.86063217307082,0,0,95.7433101504,95.7433101504,0,0,0.078030514308,0.570538076,17,5,95.7433101504,0,0,0.082416997388,0,0,0,235.6,-1,0.4,0,0,1024,1024,1024,1024,0,0,0,0,235.7,0,95.7433101504,0,10,Assisted_Takeoff
9900,51.5194976647044,5.86063216438226,0,0,95.7433101504,95.7433101504,0,0,0.074764438088,0.5745078924,17,5,95.7433101504,0,0,0.082416997388,0,0,0,235.5,-1,0.4,0,0,1024,1024,1024,1024,0,0,0,0,235.7,0,95.7433101504,0,10,Assisted_Takeoff
10000,51.5194976624253,5.86063216483365,0,0,95.7433101504,95.7433101504,0,0,0.075581695332,0.57534778744,17,5,95.7433101504,0,0,0.082416997388,0,0,0,235.4,-1,0.5,0,0,1024,1024,1024,1024,0,0,0,0,235.7,0,95.7433101504,0,10,Assisted_Takeoff
10100,51.5194976605821,5.86063216444302,0,0,95.7433101504,95.7433101504,0,0,0.076259516876,0.57602364048,17,5,95.7433101504,0,0,0.082416997388,0,0,0,235.6,-1,0.4,0,0,1024,1024,1024,1024,0,0,0,0,235.7,0,95.7433101504,0,10,Assisted_Takeoff
10200,51.5194976581272,5.86063217798692,0,0,95.7433101504,95.7433101504,0,0,0.07691437254,0.57922902116,17,5,95.7433101504,0,0,0.082416997388,0,0,0,235.5,-1,0.4,0,0,1024,1024,1024,1024,0,0,0,0,235.7,0,95.7433101504,0,10,Assisted_Takeoff
10300,51.5194976552976,5.86063217623967,0,0,95.7433101504,95.7433101504,0,0,0.077968506432,0.58033466424,17,5,95.7433101504,0,0,0.082416997388,0,0,0,235.4,-1,0.5,0,0,1024,1024,1024,1024,0,0,0,0,235.7,0,95.7433101504,0,10,Assisted_Takeoff
10400,51.5194976541002,5.86063217308558,0,0,95.7433101504,95.7433101504,0,0,0.07845144608,0.58117127844,17,5,95.7433101504,0,0,0.082416997388,0,0,0,235.6,-1,0.4,0,0,1024,1024,1024,1024,0,0,0,0,235.7,0,95.7433101504,0,10,Assisted_Takeoff
10500,51.5194976573213,5.86063217888325,0,0,95.7433101504,95.7433101504,0,0,0.07719652478,0.58293637036,17,5,95.7433101504,0,0,0.082416997388,0,0,0,235.6,-1,0.5,0,0,1024,1024,1024,1024,0,0,0,0,235.7,0,95.7433101504,0,10,Assisted_Takeoff
10700,51.5194976539139,5.86063217406685,0,0,95.7433101504,95.7433101504,0,0,0.07850393952,0.58459319456,17,5,95.7433101504,0,0,0.082416997388,0,0,0,235.7,-1,0.5,0,0,1024,1024,1024,1024,0,0,0,0,235.7,0,95.7433101504,0,10,Assisted_Takeoff
10800,51.5194975526079,5.86063217236135,0,0,95.7433101504,95.7433101504,0,0,0.115426840964,0.621555138,17,5,95.7433101504,0,0,0.115426840964,0,0,0,235.6,-1,0.5,0,0,1024,1024,1024,1024,0,0,0,0,235.7,0,95.7433101504,0,10,Assisted_Takeoff
10900,51.5194975572608,5.86063216394426,0,0,95.7433101504,95.7433101504,0,0,0.113842523328,0.62411091236,17,5,95.7433101504,0,0,0.115426840964,0,0,0,235.5,-1,0.5,0,0,1024,1024,1024,1024,0,0,0,0,235.7,0,95.7433101504,0,10,Assisted_Takeoff
11000,51.519497556848,5.86063216181035,0,0,95.7433101504,95.7433101504,0,0,0.114025922284,0.62461944256,17,5,95.7433101504,0,0,0.115426840964,0,0,0,235.7,-1,0.4,0,0,1024,1024,1063,1024,0,0,6,0,235.7,0,95.7433101504,0,10,Assisted_Takeoff
11100,51.5194975548676,5.86063216080108,0,0,95.7433101504,95.7433101504,0,0,0.114763127032,0.6253773166,17,5,95.7433101504,0,0,0.115426840964,0,0,0,235.6,-1,0.4,0,0,1024,1024,1034,1024,0,0,2,0,235.7,0,95.7433101504,0,10,Assisted_Takeoff
11200,51.5194975570025,5.86063215811197,0,0,95.7433101504,95.7433101504,0,0,0.11403215588,0.62636813028,17,5,95.7433101504,0,0,0.115426840964,0,0,0,235.4,-1,0.5,0,0,1024,1024,1024,1024,0,0,0,0,235.7,0,95.7433101504,0,10,Assisted_Takeoff
11300,51.5194975545504,5.86063215759269,0,0,95.7433101504,95.7433101504,0,0,0.114933402628,0.62727036128,17,5,95.7433101504,0,0,0.115426840964,0,0,0,235.6,-1,0.5,0,0,1024,1024,1062,1024,0,0,6,0,235.7,0,95.7433101504,0,10,Assisted_Takeoff
11400,51.5194975536776,5.86063225592235,0,0,95.7433101504,95.7433101504,0,0,0.115665029948,0.64959647748,17,5,95.7433101504,0,0,0.115665029948,0,0,0,235.6,-1,0.5,0,0,1024,1024,1075,1024,0,0,8,0,235.7,0,95.7433101504,0,10,Assisted_Takeoff
11500,51.5194975467178,5.86063228092238,0,0,95.7433101504,95.7433101504,0,0,0.118960305644,0.65581366928,17,5,95.7433101504,0,0,0.118960305644,0,0,0,235.4,-1,0.5,0,0,1024,1024,1122,1024,0,0,15,0,235.7,0,95.7433101504,0,10,Assisted_Takeoff
11600,51.5194975458302,5.86063227953474,0,0,95.7433101504,95.7433101504,0,0,0.119230318776,0.65626314436,17,5,95.7433101504,0,0,0.119230318776,0,0,0,235.6,-1,0.4,0,0,1024,1024,1164,1024,0,0,21,0,235.7,0,95.7433101504,0,10,Assisted_Takeoff
11700,51.5194975437884,5.86063227843321,0,0,95.7433101504,95.7433101504,0,0,0.119927497276,0.65705054596,17,5,95.7433101504,0,0,0.119927497276,0,0,0,235.7,-1,0.4,0,0,1024,1024,1231,1024,0,0,31,0,235.7,0,95.7433101504,0,10,Assisted_Takeoff
11800,51.5194975503194,5.86063229696771,0,0,95.7433101504,95.7433101504,0,0,0.11830544998,0.66188650412,17,5,95.7433101504,0,0,0.119927497276,0,0,0,235.4,-1.1,0.5,0,0,1024,1024,1256,1024,0,0,35,0,235.7,0,95.7433101504,0,10,Assisted_Takeoff
11900,51.5194975492126,5.86063229205184,0,0,95.7433101504,95.7433101504,0,0,0.118494426364,0.6630741682,17,5,95.7433101504,0,0,0.119927497276,0,0,0,235.6,-1.1,0.4,0,0,1024,1024,1261,1024,0,0,36,0,235.7,0,95.7433101504,0,10,Assisted_Takeoff
12000,51.5194975456949,5.86063228721612,0,0,95.7433101504,95.7433101504,0,0,0.119564308288,0.66476051996,17,5,95.7433101504,0,0,0.119927497276,0,0,0,235.6,-1.1,0.3,0,0,1024,1024,1265,1024,0,0,37,0,235.7,0,95.7433101504,0,10,Assisted_Takeoff
12100,51.5194975417111,5.86063227622064,0,0,95.7433101504,95.7433101504,0,0,0.120601053728,0.66765094,17,5,95.7433101504,0,0,0.120601053728,0,0,0,235.6,-1.1,0.4,0,0,1024,1024,1266,1024,0,0,37,0,235.7,0,95.7433101504,0,10,Assisted_Takeoff
12200,51.5194975286683,5.86063226239809,0,0,95.7433101504,95.7433101504,0,0,0.124898954128,0.67334975908,17,5,95.7433101504,0,0,0.124898954128,0,0,0,235.7,-1.6,0.4,0,0,1024,1024,1283,1024,0,0,39,0,235.7,0,95.7433101504,0,10,Assisted_Takeoff
12300,51.5194974949537,5.86063218269138,0,0,95.7433101504,95.7433101504,0.328084,0.223694,0.13636319334,0.69522968104,17,5,95.7433101504,0,0.223694,0.13636319334,0,-0.223694,-0.223694,235.7,-1.6,1,0,0,1024,1024,1283,1024,0,0,39,0,235.7,0,95.7433101504,0,10,Assisted_Takeoff
12400,51.5194974560851,5.86063200034563,0,0,95.7433101504,95.7433101504,0.328084,0.223694,0.157007222872,0.73898952496,17,5,95.7433101504,0,0.223694,0.157007222872,0,-0.223694,-0.894776,235.6,-1.2,1,0,0,1024,1024,1290,1024,0,0,40,0,235.7,0,95.7433101504,0,6,P-GPS
12500,51.5194973830929,5.86063171290876,0,0,95.7433101504,95.7433101504,0.328084,0.4921268,0.208498038168,0.80947181068,17,5,95.7433101504,0,0.4921268,0.208498038168,-0.223694,-0.447388,-0.894776,235.6,-0.6,1.2,0,0,1024,1024,1292,1024,0,0,41,0,235.7,0,95.7433101504,0,6,P-GPS
12600,51.5194973165168,5.86063139460703,0.328084,0.328084,95.7433101504,96.0713941504,0.656168,0.7158208,0.271630258036,0.88570868976,17,5,96.0713941504,0.328084,0.7158208,0.271630258036,-0.223694,-0.671082,-1.11847,235.5,-0.8,1,0,0,1024,1024,1291,1024,0,0,40,0,235.7,0,96.0713941504,0.328084,6,P-GPS
12700,51.5194972134265,5.8606309451854,0.328084,0.328084,95.7433101504,96.0713941504,0.984252,0.7158208,0.37141405388,0.99444885072,17,5,96.0713941504,0.328084,0.7158208,0.37141405388,-0.223694,-0.671082,-1.342164,235.4,-0.5,0.7,0,0,1024,1024,1286,1024,0,0,40,0,235.7,0,96.0713941504,0.328084,6,P-GPS
12800,51.5194971203992,5.8606301520026,0.656168,0.656168,95.7433101504,96.3994781504,0.984252,0.9171454,0.53863846868,1.17769360724,17,5,96.3994781504,0.656168,0.9171454,0.53863846868,-0.223694,-0.894776,-1.565858,235.3,0.5,0.5,0,0,1024,1024,1297,1024,0,0,41,0,235.7,0,96.3994781504,0.656168,6,P-GPS
12900,51.5194969483817,5.86062949689267,0.984252,0.984252,95.7433101504,96.7275621504,1.312336,1.006623,0.698982962,1.33912077776,17,5,96.7275621504,0.984252,1.006623,0.698982962,-0.447388,-0.894776,-1.342164,235.3,1.9,0.2,0,0,1024,1024,1304,1024,0,0,42,0,235.7,0,96.7275621504,0.984252,6,P-GPS
13000,51.5194968839725,5.8606288797284,0.984252,0.984252,95.7433101504,96.7275621504,1.312336,1.006623,0.83446853064,1.48119099228,17,5,96.7275621504,0.984252,1.006623,0.83446853064,-0.447388,-0.894776,-1.342164,235.4,3.5,-0.5,0,0,1024,1024,1324,1024,0,0,45,0,235.7,0,96.7275621504,0.984252,6,P-GPS
13100,51.5194966901363,5.86062828294395,1.312336,1.312336,95.7433101504,97.0556461504,1.64042,0.8052984,0.98721787936,1.63402564284,17,5,97.0556461504,1.312336,1.006623,0.98721787936,-0.447388,-0.671082,-1.565858,235.3,4.5,-1.2,0,0,1024,1024,1347,1024,0,0,49,0,235.7,0,97.0556461504,1.312336,6,P-GPS
13200,51.5194966410533,5.86062736961786,1.64042,1.64042,95.7433101504,97.3837301504,1.968504,0.7158208,1.18399610088,1.84214572824,17,5,97.3837301504,1.64042,1.006623,1.18399610088,-0.223694,-0.671082,-2.013246,235.2,5.4,-1.1,0,0,1024,1024,1366,1024,0,0,52,0,235.7,0,97.3837301504,1.64042,6,P-GPS
13300,51.5194965555352,5.86062695412879,1.968504,1.968504,95.7433101504,97.7118141504,2.296588,0.4921268,1.28313324316,1.94149940596,17,5,97.7118141504,1.968504,1.006623,1.28313324316,-0.223694,-0.447388,-2.684328,235.1,6.4,-0.7,0,0,1024,1024,1339,1024,0,0,48,0,235.7,0,97.7118141504,1.968504,6,P-GPS
13400,51.5194965908026,5.86062637206957,2.296588,2.296588,95.7433101504,98.0398981504,2.624672,0.4921268,1.40225726272,2.07426843908,17,5,98.0398981504,2.296588,1.006623,1.40225726272,-0.223694,-0.447388,-3.131716,235.2,6.6,-0.7,0,0,1024,1024,1333,1024,0,0,47,0,235.7,0,98.0398981504,2.296588,6,P-GPS
13500,51.519496481839,5.8606261011558,2.952756,2.952756,95.7433101504,98.6960661504,3.28084,0.3131716,1.47357944348,2.14750334956,17,5,98.6960661504,2.952756,1.006623,1.47357944348,-0.223694,-0.223694,-3.35541,235.3,6.4,-1.1,0,0,1024,1024,1356,1024,0,0,50,0,235.7,0,98.6960661504,2.952756,6,P-GPS
13600,51.519496474987,5.8606251001721,3.608924,3.608924,95.7433101504,99.3522341504,3.937008,0.3131716,1.6895669832,2.37476713636,17,5,99.3522341504,3.608924,1.006623,1.6895669832,-0.223694,-0.223694,-3.35541,235.5,6.4,-1.8,0,0,1024,1024,1360,1024,0,0,51,0,235.7,0,99.3522341504,3.608924,6,P-GPS
13700,51.5194963610889,5.8606248644586,3.937008,3.937008,95.7433101504,99.6803181504,4.265092,0.3131716,1.7532644918,2.4425197632,17,5,99.6803181504,3.937008,1.006623,1.7532644918,-0.223694,-0.223694,-3.35541,235.5,6.7,-2.4,0,0,1024,1024,1353,1024,0,0,50,0,235.7,0,99.6803181504,3.937008,6,P-GPS
13800,51.5194963213731,5.86062479270443,4.593176,4.593176,95.7433101504,100.3364861504,4.92126,0.3131716,1.77329730084,2.46432422584,17,5,100.3364861504,4.593176,1.006623,1.77329730084,-0.223694,-0.223694,-3.579104,235.5,6.6,-1.9,0,0,1024,1024,1347,1024,0,0,49,0,235.7,0,100.3364861504,4.593176,6,P-GPS
14000,51.5194958296152,5.86062437740513,5.577428,5.577428,95.7433101504,101.3207381504,6.233596,0.447388,1.92489507472,2.66700467852,17,5,101.3207381504,5.577428,1.006623,1.92489507472,-0.447388,0,-3.802798,235.8,5.9,-1.2,0,0,1024,1024,1318,1024,0,0,45,0,235.7,0,101.3207381504,5.577428,6,P-GPS
14100,51.5194956393048,5.86062438376156,6.233596,6.233596,95.7433101504,101.9769061504,6.56168,0.447388,1.95146987872,2.73645349964,17,5,101.9769061504,6.233596,1.006623,1.95146987872,-0.447388,0,-3.802798,235.9,6.2,-0.8,0,0,1024,1024,1302,1024,0,0,42,0,235.7,0,101.9769061504,6.233596,6,P-GPS
14200,51.5194956068465,5.86062437960357,6.889764,6.889764,95.7433101504,102.6330741504,7.217848,0.223694,1.95729008888,2.74833342128,17,5,102.6330741504,6.889764,1.006623,1.95729008888,-0.223694,0,-3.579104,235.7,6.2,0.1,0,0,1024,1024,1309,1024,0,0,43,0,235.7,0,102.6330741504,6.889764,6,P-GPS
14300,51.5194953335426,5.8606242466754,7.545932,7.5787404,95.7105017504,103.2892421504,7.874016,0.223694,2.0281824796,2.85251649548,17,5,103.2892421504,7.545932,1.006623,2.0281824796,-0.223694,0,-3.35541,235.7,6.3,0.7,0,0,1024,1024,1312,1024,0,0,44,0,235.7,0,103.2892421504,7.545932,6,P-GPS
14400,51.5194948574863,5.86062431758183,7.874016,7.9068244,95.7105017504,103.6173261504,8.2021,0.223694,2.09931765248,3.02694891576,17,5,103.6173261504,7.874016,1.006623,2.09931765248,-0.223694,0,-3.35541,235.7,6.4,1.1,0,0,1024,1024,1306,1024,0,0,43,0,235.7,0,103.6173261504,7.874016,6,P-GPS
14500,51.519494701846,5.86062432843395,8.530184,8.5629924,95.7105017504,104.2734941504,8.858268,0.223694,2.12751647228,3.08378946876,17,5,104.2734941504,8.530184,1.006623,2.12751647228,-0.223694,0,-3.35541,235.8,6.6,1.7,0,0,1024,1024,1312,1024,0,0,44,0,235.7,0,104.2734941504,8.530184,6,P-GPS
14600,51.5194946939629,5.86062445036289,9.186352,9.2191604,95.7105017504,104.9296621504,9.186352,0,2.1059055792,3.11161755364,17,5,104.9296621504,9.186352,1.006623,2.12751647228,0,0,-3.131716,235.8,6.4,1.7,0,0,1024,1024,1313,1024,0,0,44,0,235.7,0,104.9296621504,9.186352,6,P-GPS
14700,51.5194946482364,5.86062449602265,9.514436,9.5472444,95.7105017504,105.2577461504,9.84252,0,2.10651581544,3.13125994272,17,5,105.2577461504,9.514436,1.006623,2.12751647228,0,0,-3.131716,235.7,5.9,1.5,0,0,1024,1024,1332,1024,0,0,47,0,235.7,0,105.2577461504,9.514436,6,P-GPS
14900,51.5194945910747,5.86062481105249,10.498688,10.5314964,95.7105017504,106.2419981504,10.498688,0,2.0595801184,3.2057579766,17,5,106.2419981504,10.498688,1.006623,2.12751647228,0,0,-3.131716,235.8,5.2,0.9,0,0,1024,1024,1333,1024,0,0,47,0,235.7,0,106.2419981504,10.498688,6,P-GPS
15000,51.5194946640106,5.86062470419922,10.826772,10.8595804,95.7105017504,106.5700821504,10.498688,0,2.06419297944,3.24176847644,17,5,106.5700821504,10.826772,1.006623,2.12751647228,0,0,-3.131716,235.8,4.8,0.9,0,0,1024,1024,1318,1024,0,0,45,0,235.7,0,106.5700821504,10.826772,6,P-GPS
15100,51.5194947079221,5.86062460056954,11.154856,11.1876644,95.7105017504,106.8981661504,10.170604,0,2.07467526324,3.27022976344,17,5,106.8981661504,11.154856,1.006623,2.12751647228,0,0,-3.35541,235.7,4.6,0.5,0,0,1024,1024,1310,1024,0,0,43,0,235.7,0,106.8981661504,11.154856,6,P-GPS
15200,51.5194947422031,5.86062489103913,11.811024,11.8438324,95.7105017504,107.5543341504,10.498688,0,2.0130742114,3.3373360648,17,5,107.5543341504,11.811024,1.006623,2.12751647228,0,0,-3.131716,235.6,4.9,-0.1,0,0,1024,1024,1301,1024,0,0,42,0,235.7,0,107.5543341504,11.811024,6,P-GPS
15300,51.5194947228365,5.8606247672194,12.139108,12.1719164,95.7105017504,107.8824181504,10.826772,0,2.04026581332,3.3663386904,17,5,107.8824181504,12.139108,1.006623,2.12751647228,0,0,-3.131716,235.6,5.1,-0.3,0,0,1024,1024,1293,1024,0,0,41,0,235.7,0,107.8824181504,12.139108,6,P-GPS
15400,51.5194946832134,5.86062476314634,12.795276,12.8280844,95.7105017504,108.5385861504,10.826772,0,2.0491962598,3.3808071948,17,5,108.5385861504,12.795276,1.006623,2.12751647228,0,0,-3.131716,235.5,5.4,-0.5,0,0,1024,1024,1301,1024,0,0,42,0,235.7,0,108.5385861504,12.795276,6,P-GPS
15500,51.5194946819465,5.86062483376888,13.12336,13.1561684,95.7105017504,108.8666701504,11.154856,0,2.03627303104,3.3968505024,17,5,108.8666701504,13.12336,1.006623,2.12751647228,0,0,-2.908022,235.5,5.6,-0.4,0,0,1024,1024,1313,1024,0,0,44,0,235.7,0,108.8666701504,13.12336,6,P-GPS
15600,51.5194948345369,5.86062485523024,13.779528,13.8123364,95.7105017504,109.5228381504,11.48294,0,2.00094822676,3.452756016,17,5,109.5228381504,13.779528,1.006623,2.12751647228,0,0,-2.908022,235.4,5.7,-0.1,0,0,1024,1024,1313,1024,0,0,44,0,235.7,0,109.5228381504,13.779528,6,P-GPS
15700,51.5194947897118,5.86062478266815,14.107612,14.1404204,95.7105017504,109.8509221504,11.48294,0,2.02372381804,3.4759515548,17,5,109.8509221504,14.107612,1.006623,2.12751647228,0,0,-2.908022,235.5,5.5,-0.1,0,0,1024,1024,1305,1024,0,0,43,0,235.7,0,109.8509221504,14.107612,6,P-GPS
15800,51.5194948566337,5.86062468397485,14.435696,14.4685044,95.7105017504,110.1790061504,11.811024,0,2.02907158724,3.5090880388,17,5,110.1790061504,14.435696,1.006623,2.12751647228,0,0,-3.131716,235.4,5.7,-0.4,0,0,1024,1024,1324,1024,0,0,45,0,235.7,0,110.1790061504,14.435696,6,P-GPS
15900,51.5194948215812,5.86062463829974,15.091864,15.1246724,95.7105017504,110.8351741504,11.811024,0,2.04472119404,3.5255578556,17,5,110.8351741504,15.091864,1.006623,2.12751647228,0,0,-3.131716,235.4,6.2,-0.5,0,0,1024,1024,1339,1024,0,0,48,0,235.7,0,110.8351741504,15.091864,6,P-GPS
16000,51.5194948846765,5.86062441318986,15.419948,15.4527564,95.7105017504,111.1632581504,12.139108,0,2.07563326852,3.5816274112,17,5,111.1632581504,15.419948,1.006623,2.12751647228,0,0,-3.131716,235.3,6.5,-0.8,0,0,1024,1024,1351,1024,0,0,50,0,235.7,0,111.1632581504,15.419948,6,P-GPS
16100,51.5194949885228,5.86062441126701,16.076116,16.1089244,95.7105017504,111.8194261504,12.139108,0,2.05638786108,3.6195211132,17,5,111.8194261504,16.076116,1.006623,2.12751647228,0,0,-3.131716,235.2,6.6,-1.1,0,0,1024,1024,1344,1024,0,0,48,0,235.7,0,111.8194261504,16.076116,6,P-GPS
16200,51.5194949742727,5.86062392391793,16.4042,16.4370084,95.7105017504,112.1475101504,12.467192,0,2.15478025268,3.7302822716,17,5,112.1475101504,16.4042,1.006623,2.15478025268,0,0,-3.35541,235.2,6.7,-1.3,0,0,1024,1024,1361,1024,0,0,51,0,235.7,0,112.1475101504,16.4042,6,P-GPS
16300,51.5194949488416,5.8606238656323,17.060368,17.0931764,95.7105017504,112.8036781504,12.795276,0,2.17086293036,3.7464240044,17,5,112.8036781504,17.060368,1.006623,2.17086293036,0,0,-3.579104,235.1,6.8,-1.1,0,0,1024,1024,1398,1024,0,0,57,0,235.7,0,112.8036781504,17.060368,6,P-GPS
16400,51.5194950439798,5.86062396529355,17.716536,17.7493444,95.7105017504,113.4598461504,13.12336,0,2.13419954336,3.7878610136,17,5,113.4598461504,17.716536,1.006623,2.17086293036,0,0,-3.579104,235.1,6.9,-0.9,0,0,1024,1024,1388,1024,0,0,55,0,235.7,0,113.4598461504,17.716536,6,P-GPS
16500,51.5194950065007,5.86062408304393,18.372704,18.4055124,95.7105017504,114.1160141504,13.12336,0,2.11753943784,3.8178806996,17,5,114.1160141504,18.372704,1.006623,2.17086293036,0,0,-3.802798,235.2,6.5,-0.5,0,0,1024,1024,1364,1024,0,0,52,0,235.7,0,114.1160141504,18.372704,6,P-GPS
16600,51.5194949726689,5.86062383046046,19.028872,19.0616804,95.7105017504,114.7721821504,13.451444,0,2.17358274672,3.8765421188,17,5,114.7721821504,19.028872,1.006623,2.17358274672,0,0,-4.250186,235.2,6.4,-0.3,0,0,1024,1024,1365,1024,0,0,52,0,235.7,0,114.7721821504,19.028872,6,P-GPS
16700,51.5194950208773,5.8606238507914,19.68504,19.7178484,95.7105017504,115.4283501504,13.779528,0,2.1610400954,3.8947179724,17,5,115.4283501504,19.68504,1.006623,2.17358274672,0,0,-4.250186,235.2,6.7,-0.3,0,0,1024,1024,1373,1024,0,0,53,0,235.7,0,115.4283501504,19.68504,6,P-GPS
16800,51.519494915185,5.86062375548942,20.341208,20.3740164,95.7105017504,116.0845181504,14.107612,0,2.19867461104,3.9389436956,17,5,116.0845181504,20.341208,1.006623,2.19867461104,0,0,-4.026492,235.3,7,-0.4,0,0,1024,1024,1379,1024,0,0,54,0,235.7,0,116.0845181504,20.341208,6,P-GPS
16900,51.5194949135282,5.86062385286519,20.997376,21.0301844,95.7105017504,116.7406861504,14.435696,0,2.17973104088,3.9610565572,17,5,116.7406861504,20.997376,1.006623,2.19867461104,0,0,-3.802798,235.3,7.2,-0.4,0,0,1024,1024,1376,1024,0,0,53,0,235.7,0,116.7406861504,20.997376,6,P-GPS
17000,51.5194948194476,5.86062376132215,21.32546,21.3582684,95.7105017504,117.0687701504,14.76378,0,2.21485899476,4.0011812304,17,5,117.0687701504,21.32546,1.006623,2.21485899476,0,0,-4.026492,235.4,7.1,-0.2,0,0,1024,1024,1379,1024,0,0,54,0,235.7,0,117.0687701504,21.32546,6,P-GPS
17100,51.5194948172293,5.86062369013753,21.981628,22.0144364,95.7105017504,117.7249381504,15.091864,0,2.22925203984,4.0173557716,17,5,117.7249381504,21.981628,1.006623,2.22925203984,0,0,-4.026492,235.5,7.2,0,0,0,1024,1024,1388,1024,0,0,55,0,235.7,0,117.7249381504,21.981628,6,P-GPS
17300,51.5194947801304,5.86062381013463,23.293964,23.3267724,95.7105017504,119.0372741504,15.748032,0.223694,2.21255584508,4.0478019668,17,5,119.0372741504,23.293964,1.006623,2.22925203984,0,0.223694,-4.026492,235.4,6.8,0.5,0,0,1024,1024,1392,1024,0,0,56,0,235.7,0,119.0372741504,23.293964,6,P-GPS
17400,51.5194946678668,5.86062392763125,23.950132,23.9829404,95.7105017504,119.6934421504,16.076116,0.223694,2.21099744608,4.0966864828,17,5,119.6934421504,23.950132,1.006623,2.22925203984,0,0.223694,-4.026492,235.5,6.6,0.5,0,0,1024,1024,1396,1024,0,0,56,0,235.7,0,119.6934421504,23.950132,6,P-GPS
17500,51.5194947235123,5.86062400819039,24.6063,24.6391084,95.7105017504,120.3496101504,16.4042,0.223694,2.18475728776,4.1239830716,17,5,120.3496101504,24.6063,1.006623,2.22925203984,0,0.223694,-4.250186,235.7,6.2,0.5,0,0,1024,1024,1347,1024,0,0,49,0,235.7,0,120.3496101504,24.6063,6,P-GPS
17700,51.519494753901,5.86062430312311,25.918636,25.9514444,95.7105017504,121.6619461504,17.060368,0,2.1221129288,4.1918636512,17,5,121.6619461504,25.918636,1.006623,2.22925203984,0,0,-4.250186,235.8,6.2,0,0,0,1024,1024,1345,1024,0,0,49,0,235.7,0,121.6619461504,25.918636,6,P-GPS
17800,51.5194949252057,5.86062468367736,26.574804,26.6076124,95.7105017504,122.3181141504,17.388452,0.223694,2.01568904088,4.2984909512,17,5,122.3181141504,26.574804,1.006623,2.22925203984,0,0.223694,-4.026492,235.9,6.1,0,0,0,1024,1024,1373,1024,0,0,53,0,235.7,0,122.3181141504,26.574804,6,P-GPS
17900,51.5194950171726,5.86062482906122,27.230972,27.2637804,95.7105017504,122.9742821504,17.716536,0.223694,1.96991148036,4.3455710052,17,5,122.9742821504,27.230972,1.006623,2.22925203984,0.223694,0,-4.026492,235.9,5.9,0,0,0,1024,1024,1380,1024,0,0,54,0,235.7,0,122.9742821504,27.230972,6,P-GPS
18000,51.5194951072318,5.86062519561955,27.559056,27.5918644,95.7105017504,123.3023661504,18.04462,0.3131716,1.88195872164,4.435039512,17,5,123.3023661504,27.559056,1.006623,2.22925203984,0.223694,0.223694,-4.026492,235.9,5.6,-0.2,0,0,1024,1024,1388,1024,0,0,55,0,235.7,0,123.3023661504,27.559056,6,P-GPS
18100,51.5194952036035,5.86062536525572,28.215224,28.2480324,95.7105017504,123.9585341504,18.372704,0.3131716,1.83062997984,4.4871720596,17,5,123.9585341504,28.215224,1.006623,2.22925203984,0.223694,0.223694,-4.026492,235.9,5.2,-0.4,0,0,1024,1024,1379,1024,0,0,54,0,235.7,0,123.9585341504,28.215224,6,P-GPS
18200,51.5194951961878,5.86062529269517,28.871392,28.9042004,95.7105017504,124.6147021504,18.700788,0,1.84603680448,4.5038715352,17,5,124.6147021504,28.871392,1.006623,2.22925203984,0,0,-4.026492,235.8,5.1,-0.1,0,0,1024,1024,1365,1024,0,0,52,0,235.7,0,124.6147021504,28.871392,6,P-GPS
18400,51.5194954890338,5.86062586894447,30.183728,30.2165364,95.7105017504,125.9270381504,19.356956,0.223694,1.67865490936,4.6728019868,17,5,125.9270381504,30.183728,1.006623,2.22925203984,0,0.223694,-4.250186,235.9,5.5,-0.2,0,0,1024,1024,1360,1024,0,0,51,0,235.7,0,125.9270381504,30.183728,6,P-GPS
18500,51.519495572168,5.86062601181863,30.839896,30.839896,95.7433101504,126.5832061504,19.68504,0,1.63523299196,4.717191752,17,5,126.5832061504,30.839896,1.006623,2.22925203984,0,0,-4.250186,235.8,5.1,-0.4,0,0,1024,1024,1360,1024,0,0,51,0,235.7,0,126.5832061504,30.839896,6,P-GPS
18600,51.5194957178716,5.86062612495729,31.496064,31.496064,95.7433101504,127.2393741504,20.013124,0,1.5862697358,4.776246872,17,5,127.2393741504,31.496064,1.006623,2.22925203984,0,0,-4.026492,235.7,4.9,-0.5,0,0,1024,1024,1371,1024,0,0,53,0,235.7,0,127.2393741504,31.496064,6,P-GPS
18700,51.5194957938561,5.86062620867074,32.152232,32.152232,95.7433101504,127.8955421504,20.341208,0,1.55610897368,4.8098426736,17,5,127.8955421504,32.152232,1.006623,2.22925203984,0,0,-4.026492,235.7,4.8,-0.6,0,0,1024,1024,1370,1024,0,0,52,0,235.7,0,127.8955421504,32.152232,6,P-GPS
18800,51.5194958201175,5.86062615392913,32.480316,32.480316,95.7433101504,128.2236261504,20.669292,0,1.56237209724,4.8255578972,17,5,128.2236261504,32.480316,1.006623,2.22925203984,0,0,-4.026492,235.6,4.9,-0.8,0,0,1024,1024,1357,1024,0,0,50,0,235.7,0,128.2236261504,32.480316,6,P-GPS
18900,51.5194959500531,5.86062619638248,33.136484,33.136484,95.7433101504,128.8797941504,20.669292,0,1.5316765582,4.8739174788,17,5,128.8797941504,33.136484,1.006623,2.22925203984,0,0,-4.026492,235.6,5.4,-0.9,0,0,1024,1024,1353,1024,0,0,50,0,235.7,0,128.8797941504,33.136484,6,P-GPS
19100,51.5194961488832,5.86062642972831,34.44882,34.44882,95.7433101504,130.1921301504,21.32546,0,1.45196526956,4.963746878,17,5,130.1921301504,34.44882,1.006623,2.22925203984,0,0,-3.802798,235.4,5.4,-1.1,0,0,1024,1005,1356,1024,0,-3,50,0,235.7,0,130.1921301504,34.44882,6,P-GPS
19200,51.5194964203764,5.86062647323686,34.776904,34.776904,95.7433101504,130.5202141504,21.653544,0,1.40283469056,5.0632875636,17,5,130.5202141504,34.776904,1.006623,2.22925203984,0,0,-3.802798,235.4,5.3,-1,0,0,1024,934,1362,1024,0,-14,51,0,235.7,0,130.5202141504,34.776904,6,P-GPS
19300,51.5194964559953,5.86062653151915,35.433072,35.433072,95.7433101504,131.1763821504,21.981628,0,1.38569886324,5.0818243096,17,5,131.1763821504,35.433072,1.006623,2.22925203984,0,0,-3.802798,235.4,5,-1.1,0,0,1024,924,1366,1024,0,-15,52,0,235.7,0,131.1763821504,35.433072,6,P-GPS
19400,51.5194962782047,5.86062625746472,36.08924,36.08924,95.7433101504,131.8325501504,22.309712,0,1.46804794724,5.1717193256,17,5,131.8325501504,36.08924,1.006623,2.22925203984,0,0,-4.026492,235.4,3.7,-2.1,0,0,1024,899,1364,1024,0,-19,52,0,235.7,0,131.8325501504,36.08924,6,P-GPS
19500,51.5194962529777,5.86062609560676,36.745408,36.745408,95.7433101504,132.4887181504,22.637796,0,1.50545280408,5.2096130276,17,5,132.4887181504,36.745408,1.006623,2.22925203984,0,0,-3.802798,235.5,2.9,-3.2,0,0,1024,895,1364,1024,0,-20,52,0,235.7,0,132.4887181504,36.745408,6,P-GPS
19600,51.5194963056725,5.86062604583027,37.073492,37.073492,95.7433101504,132.8168021504,22.96588,0.223694,1.50848430024,5.2318899312,17,5,132.8168021504,37.073492,1.006623,2.22925203984,-0.223694,0,-3.802798,235.5,2.6,-4.4,0,0,1024,928,1364,1024,0,-15,52,0,235.7,0,132.8168021504,37.073492,6,P-GPS
19700,51.5194961109167,5.86062599908823,37.72966,37.72966,95.7433101504,133.4729701504,23.293964,0.447388,1.54640424896,5.3037403272,17,5,133.4729701504,37.72966,1.006623,2.22925203984,-0.447388,0,-4.026492,235.5,2.5,-5.1,0,0,1024,918,1363,1024,0,-16,51,0,235.7,0,133.4729701504,37.72966,6,P-GPS
19800,51.5194960067334,5.86062595287654,38.385828,38.385828,95.7433101504,134.1291381504,23.293964,0.447388,1.57200464348,5.343176024,17,5,134.1291381504,38.385828,1.006623,2.22925203984,-0.447388,0,-4.026492,235.6,2.7,-4.9,0,0,1024,900,1366,1024,0,-19,52,0,235.7,0,134.1291381504,38.385828,6,P-GPS
19900,51.5194957422274,5.86062591964793,39.041996,39.041996,95.7433101504,134.7853061504,23.622048,0.671082,1.62267393644,5.4399936124,17,5,134.7853061504,39.041996,1.006623,2.22925203984,-0.671082,0,-4.026492,235.6,2.9,-4.6,0,0,1024,966,1365,1024,0,-9,52,0,235.7,0,134.7853061504,39.041996,6,P-GPS
20000,51.5194953055701,5.86062553030994,39.37008,39.4028884,95.7105017504,135.1133901504,23.950132,0.894776,1.77916016192,5.6221786576,17,5,135.1133901504,39.37008,1.006623,2.22925203984,-0.894776,0,-4.026492,235.7,3,-5,0,0,1024,1024,1362,1024,0,0,51,0,235.7,0,135.1133901504,39.37008,6,P-GPS
20100,51.5194948702971,5.86062542328561,40.026248,40.0590564,95.7105017504,135.7695581504,24.278216,1.11847,1.88726712076,5.7828413924,17,5,135.7695581504,40.026248,1.11847,2.22925203984,-1.11847,0,-4.026492,235.8,3.1,-3.9,0,0,1024,1024,1386,1024,0,0,55,0,235.7,0,135.7695581504,40.026248,6,P-GPS
20200,51.5194945560209,5.86062496620278,40.682416,40.7152244,95.7105017504,136.4257261504,24.6063,1.1408394,2.03856305736,5.9374673816,17,5,136.4257261504,40.682416,1.1408394,2.22925203984,-1.11847,-0.223694,-4.026492,235.8,3.3,-2,0,0,1024,1024,1394,1024,0,0,56,0,235.7,0,136.4257261504,40.682416,6,P-GPS
20300,51.5194940775802,5.86062478823689,41.338584,41.3713924,95.7105017504,137.0818941504,24.934384,1.1408394,2.17771332428,6.116634054,17,5,137.0818941504,41.338584,1.1408394,2.22925203984,-1.11847,-0.223694,-4.026492,235.9,3.6,-0.5,0,0,1024,1024,1402,973,0,0,57,-8,235.7,0,137.0818941504,41.338584,6,P-GPS
20400,51.5194934763362,5.86062431193235,41.994752,42.0603688,95.6776933504,137.7380621504,25.262468,1.1408394,2.40267724224,6.361220676,17,5,137.7380621504,41.994752,1.1408394,2.40267724224,-1.11847,-0.223694,-4.250186,235.9,4.2,0.4,0,0,1024,1024,1428,930,0,0,61,-14,235.5,0,137.7380621504,41.994752,6,P-GPS
20500,51.5194932014269,5.86062380386517,42.65092,42.7165368,95.6776933504,138.3942301504,25.590552,1.006623,2.55551517364,6.5140750116,17,5,138.3942301504,42.65092,1.1408394,2.55551517364,-0.894776,-0.447388,-4.47388,235.8,5,1,0,0,1024,1024,1390,942,0,0,55,-12,235.1,0,138.3942301504,42.65092,6,P-GPS
20600,51.5194926653239,5.86062299890839,43.307088,43.3727048,95.6776933504,139.0503981504,25.918636,1.006623,2.82221793808,6.7817587472,17,5,139.0503981504,43.307088,1.1408394,2.82221793808,-0.894776,-0.447388,-4.697574,235.1,5.7,1.2,0,0,1024,1024,1390,937,0,0,55,-13,234.7,0,139.0503981504,43.307088,6,P-GPS
20700,51.5194922659023,5.86062257278833,44.29134,44.3569568,95.6776933504,140.0346501504,26.24672,1.006623,2.99213264168,6.9566603276,17,5,140.0346501504,44.29134,1.1408394,2.99213264168,-0.894776,-0.447388,-4.697574,234.4,6.6,1.3,0,0,1024,1024,1400,922,0,0,57,-15,234.3,0,140.0346501504,44.29134,6,P-GPS
20800,51.5194918425345,5.86062182895659,44.947508,45.0131248,95.6776933504,140.6908181504,26.574804,0.8052984,3.22097779336,7.185531726,17,5,140.6908181504,44.947508,1.1408394,3.22097779336,-0.671082,-0.447388,-4.47388,233.5,7.6,1.2,0,0,1024,1024,1396,926,0,0,56,-15,233.8,0,140.6908181504,44.947508,6,P-GPS
20900,51.5194915351979,5.86062140954681,45.603676,45.6692928,95.6776933504,141.3469861504,26.902888,0.8052984,3.3671589004,7.3326445916,17,5,141.3469861504,45.603676,1.1408394,3.3671589004,-0.671082,-0.447388,-4.47388,232.6,8.2,1.1,0,0,1024,1024,1342,970,0,0,48,-8,233.3,0,141.3469861504,45.603676,6,P-GPS
21000,51.5194912754117,5.86062075159039,46.259844,46.3254608,95.6776933504,142.0031541504,27.230972,0.6263432,3.541010612,7.5095474844,17,5,142.0031541504,46.259844,1.1408394,3.541010612,-0.447388,-0.447388,-4.47388,231.6,8.3,0.7,0,0,1024,1024,1398,934,0,0,57,-14,233,0,142.0031541504,46.259844,6,P-GPS
21100,51.5194909994277,5.86062021436382,46.916012,46.9816288,95.6776933504,142.6593221504,27.559056,0.6263432,3.6989174412,7.6677167808,17,5,142.6593221504,46.916012,1.1408394,3.6989174412,-0.447388,-0.447388,-4.026492,231.1,8.2,0.1,0,0,1024,1024,1402,914,0,0,57,-17,232.6,0,142.6593221504,46.916012,6,P-GPS
21200,51.51949068502,5.86061960113588,47.57218,47.6377968,95.6776933504,143.3154901504,27.559056,0.6263432,3.8790355572,7.848097364,17,5,143.3154901504,47.57218,1.1408394,3.8790355572,-0.447388,-0.447388,-4.026492,230.4,8,-0.1,0,0,1024,1024,1394,923,0,0,56,-15,232,0,143.3154901504,47.57218,6,P-GPS
21300,51.5194905162708,5.8606191974974,48.228348,48.2939648,95.6776933504,143.9716581504,27.88714,0.4921268,3.9882219124,7.95849763,17,5,143.9716581504,48.228348,1.1408394,3.9882219124,-0.223694,-0.447388,-4.47388,229.4,7.8,-0.5,0,0,1024,1024,1346,967,0,0,49,-9,231.3,0,143.9716581504,48.228348,6,P-GPS
21400,51.5194902068157,5.86061887690637,48.884516,48.9829412,95.6448849504,144.6278261504,28.215224,0.4921268,4.1181759848,8.0928152196,17,5,144.6278261504,48.884516,1.1408394,4.1181759848,-0.223694,-0.447388,-4.47388,228.5,7.4,-0.7,0,0,1024,1024,1320,1006,0,0,45,-3,231,0,144.6278261504,48.884516,6,P-GPS
21500,51.5194900878766,5.86061855912696,49.540684,49.6391092,95.6448849504,145.2839941504,28.543308,0.4921268,4.2006563024,8.177001574,17,5,145.2839941504,49.540684,1.1408394,4.2006563024,-0.223694,-0.447388,-4.250186,228,7,-0.8,0,0,1024,1024,1325,1006,0,0,46,-3,230.8,0,145.2839941504,49.540684,6,P-GPS
21600,51.5194901123735,5.86061823272642,49.868768,49.9671932,95.6448849504,145.6120781504,28.871392,0.447388,4.2496064352,8.251640684,17,5,145.6120781504,49.868768,1.1408394,4.2496064352,0,-0.447388,-3.802798,228,6.7,-1.2,0,0,1024,1024,1339,1006,0,0,48,-3,230.7,0,145.6120781504,49.868768,6,P-GPS
21700,51.5194899901817,5.86061797145267,50.524936,50.6233612,95.6448849504,146.2682461504,29.199476,0.447388,4.3235565688,8.3258532848,17,5,146.2682461504,50.524936,1.1408394,4.3235565688,0,-0.447388,-3.579104,228,6.6,-1.7,0,0,1024,1024,1321,1006,0,0,45,-3,230.6,0,146.2682461504,50.524936,6,P-GPS
21800,51.5194899032865,5.86061780112956,50.85302,50.9514452,95.6448849504,146.5963301504,29.52756,0.3131716,4.373523762,8.3758532864,17,5,146.5963301504,50.85302,1.1408394,4.373523762,-0.223694,-0.223694,-3.579104,228,6.5,-1.9,0,0,1024,1024,1323,1005,0,0,45,-3,230.5,0,146.5963301504,50.85302,6,P-GPS
21900,51.5194898163045,5.86061753435099,51.509188,51.6076132,95.6448849504,147.2524981504,29.52756,0.223694,4.4398951552,8.444225992,17,5,147.2524981504,51.509188,1.1408394,4.4398951552,0,-0.223694,-3.579104,228,6.6,-1.9,0,0,1024,1024,1323,1006,0,0,45,-3,230.4,0,147.2524981504,51.509188,6,P-GPS
22000,51.5194897597946,5.86061749097842,51.837272,51.9356972,95.6448849504,147.5805821504,29.855644,0.223694,4.4609253396,8.4670934468,17,5,147.5805821504,51.837272,1.1408394,4.4609253396,0,-0.223694,-3.35541,228,6.6,-1.7,0,0,1024,1024,1316,1006,0,0,44,-3,230.4,0,147.5805821504,51.837272,6,P-GPS
22100,51.5194897029496,5.86061729394589,52.49344,52.5918652,95.6448849504,148.2367501504,29.855644,0.223694,4.5081694356,8.5163716636,17,5,148.2367501504,52.49344,1.1408394,4.5081694356,0,-0.223694,-3.35541,228.1,6.4,-1.8,0,0,1024,1024,1302,1018,0,0,42,-1,230.3,0,148.2367501504,52.49344,6,P-GPS
22200,51.5194897665003,5.86061738486025,52.821524,52.9199492,95.6448849504,148.5648341504,30.183728,0,4.477362348,8.5474412184,17,5,148.5648341504,52.821524,1.1408394,4.5081694356,0,0,-3.35541,228.1,6.1,-1.7,0,0,1024,1024,1312,1023,0,0,44,-0,230.2,0,148.5648341504,52.821524,6,P-GPS
22300,51.5194898654396,5.86061746576962,53.477692,53.5761172,95.6448849504,149.2210021504,30.183728,0,4.4397639216,8.587926784,17,5,149.2210021504,53.477692,1.1408394,4.5081694356,0,0,-3.131716,228.2,5.8,-1.7,0,0,1024,1024,1307,1024,0,0,43,0,230.2,0,149.2210021504,53.477692,6,P-GPS
22400,51.5194896816691,5.86061725053723,53.805776,53.9042012,95.6448849504,149.5490861504,30.511812,0,4.5207022444,8.6708992276,17,5,149.5490861504,53.805776,1.1408394,4.5207022444,0,0,-3.131716,228.2,5.7,-1.8,0,0,1024,1024,1313,1024,0,0,44,0,230.1,0,149.5490861504,53.805776,6,P-GPS
22500,51.5194896599396,5.86061711364114,54.13386,54.2322852,95.6448849504,149.8771701504,30.511812,0,4.5493111692,8.7029858428,17,5,149.8771701504,54.13386,1.1408394,4.5493111692,0,0,-2.908022,228.1,5.8,-1.7,0,0,1024,1024,1334,1024,0,0,47,0,230.1,0,149.8771701504,54.13386,6,P-GPS
22600,51.5194897479793,5.86061726377845,54.461944,54.5603692,95.6448849504,150.2052541504,30.839896,0,4.5024935824,8.7498034296,17,5,150.2052541504,54.461944,1.1408394,4.5493111692,0,0,-2.908022,228.1,5.5,-1.6,0,0,1024,1024,1339,1024,0,0,48,0,230,0,150.2052541504,54.461944,6,P-GPS
22700,51.5194897407395,5.86061727672503,55.118112,55.2165372,95.6448849504,150.8614221504,30.839896,0,4.5020342648,8.753773246,17,5,150.8614221504,55.118112,1.1408394,4.5493111692,0,0,-3.131716,228.1,5.3,-1.6,0,0,1024,1024,1347,1024,0,0,49,0,229.9,0,150.8614221504,55.118112,6,P-GPS
22800,51.5194896278522,5.86061708945666,55.446196,55.5446212,95.6448849504,151.1895061504,30.839896,0,4.5611550016,8.8129595996,17,5,151.1895061504,55.446196,1.1408394,4.5611550016,0,0,-3.35541,228.1,5.2,-1.6,0,0,1024,1024,1347,1024,0,0,49,0,229.9,0,151.1895061504,55.446196,6,P-GPS
22900,51.5194896753749,5.86061720803883,56.102364,56.2007892,95.6448849504,151.8456741504,31.16798,0,4.5294620872,8.844980598,17,5,151.8456741504,56.102364,1.1408394,4.5611550016,0,0,-3.579104,228.1,5.3,-1.4,0,0,1024,1024,1348,1024,0,0,49,0,229.9,0,151.8456741504,56.102364,6,P-GPS
23000,51.519489660902,5.86061711349481,56.758532,56.8569572,95.6448849504,152.5018421504,31.16798,0,4.5490815104,8.8670934596,17,5,152.5018421504,56.758532,1.1408394,4.5611550016,0,0,-3.579104,228,5.5,-1.5,0,0,1024,1024,1345,1024,0,0,49,0,229.8,0,152.5018421504,56.758532,6,P-GPS
23100,51.519489648888,5.86061711570479,57.086616,57.1850412,95.6448849504,152.8299261504,31.496064,0,4.5516077572,8.8714897852,17,5,152.8299261504,57.086616,1.1408394,4.5611550016,0,0,-3.579104,228,5.5,-1.5,0,0,1024,1024,1360,1024,0,0,51,0,229.7,0,152.8299261504,57.086616,6,P-GPS
23300,51.5194896791038,5.86061700613053,58.070868,58.1692932,95.6448849504,153.8141781504,31.824148,0,4.5631235056,8.8986879488,17,5,153.8141781504,58.070868,1.1408394,4.5631235056,0,0,-3.579104,228,5.6,-1.5,0,0,1024,1024,1365,1024,0,0,52,0,229.7,0,153.8141781504,58.070868,6,P-GPS
23400,51.5194895781504,5.86061703143266,58.727036,58.8254612,95.6448849504,154.4703461504,32.152232,0,4.583005396,8.9359910996,17,5,154.4703461504,58.727036,1.1408394,4.583005396,0,0,-3.579104,228,5.6,-1.5,0,0,1024,1024,1365,1024,0,0,52,0,229.7,0,154.4703461504,58.727036,6,P-GPS
23500,51.5194895800756,5.8606170620835,59.383204,59.4816292,95.6448849504,155.1265141504,32.152232,0,4.5772967344,8.9429792888,17,5,155.1265141504,59.383204,1.1408394,4.583005396,0,0,-4.026492,228,5.5,-1.3,0,0,1024,1024,1360,1024,0,0,51,0,229.6,0,155.1265141504,59.383204,6,P-GPS
23600,51.5194896487853,5.86061721239229,60.039372,60.1377972,95.6448849504,155.7826821504,32.480316,0,4.5351379404,8.9853021248,17,5,155.7826821504,60.039372,1.1408394,4.583005396,0,0,-3.802798,227.9,5.6,-1.1,0,0,1024,1024,1361,1024,0,0,51,0,229.6,0,155.7826821504,60.039372,6,P-GPS
